[{"locationId":1,"address":"Calçada da Ajuda","sensors":[{"id":"QA00NO0001","unit":"µg/m3"},{"id":"QA0NO20001","unit":"µg/m3"},{"id":"QA00O30001","unit":"µg/m3"},{"id":"QAPM250001","unit":"µg/m3"},{"id":"QAPM100001","unit":"µg/m3"},{"id":"QA00CO0001","unit":"µg/m3"},{"id":"RULAEQ0001","unit":"dB(A)"},{"id":"ME00PA0001","unit":"mbar"},{"id":"ME00HR0001","unit":"%"},{"id":"METEMP0001","unit":"ºC"}],"coordinates":{"x":-92781,"y":-106663,"z":0,"lat":38.70263097,"lng":-9.199692206}},{"locationId":2,"address":"Restelo - Rua Gonçalo Velho Cabral","sensors":[{"id":"QA00NO0002","unit":"µg/m3"},{"id":"QA0NO20002","unit":"µg/m3"},{"id":"QA00O30002","unit":"µg/m3"},{"id":"QAPM250002","unit":"µg/m3"},{"id":"QAPM100002","unit":"µg/m3"},{"id":"QA0SO20002","unit":"µg/m3"},{"id":"QA00CO0002","unit":"µg/m3"},{"id":"RULAEQ0002","unit":"dB(A)"},{"id":"ME00PA0002","unit":"mbar"},{"id":"ME00HR0002","unit":"%"},{"id":"METEMP0002","unit":"ºC"}],"coordinates":{"x":-93600.6515,"y":-106330.6078,"z":0,"lat":38.70553838,"lng":-9.20915802}},{"locationId":3,"address":"Cais do Sodré","sensors":[{"id":"QA00NO0003","unit":"µg/m3"},{"id":"QA0NO20003","unit":"µg/m3"},{"id":"QA00O30003","unit":"µg/m3"},{"id":"QAPM250003","unit":"µg/m3"},{"id":"QAPM100003","unit":"µg/m3"},{"id":"QA0SO20003","unit":"µg/m3"},{"id":"QA00CO0003","unit":"µg/m3"},{"id":"RULAEQ0003","unit":"dB(A)"},{"id":"ME00PA0003","unit":"mbar"},{"id":"ME00HR0003","unit":"%"},{"id":"METEMP0003","unit":"ºC"}],"coordinates":{"x":-87898.5002957,"y":-106426.059635,"z":0,"lat":38.7052635,"lng":-9.143602756}},{"locationId":4,"address":"Alcântara - Rua dos Lusíadas","sensors":[{"id":"QA0NO20004","unit":"µg/m3"},{"id":"QAPM250004","unit":"µg/m3"},{"id":"QAPM100004","unit":"µg/m3"},{"id":"QA00CO0004","unit":"µg/m3"},{"id":"RULAEQ0004","unit":"dB(A)"},{"id":"ME00PA0004","unit":"mbar"},{"id":"ME00HR0004","unit":"%"},{"id":"METEMP0004","unit":"ºC"}],"coordinates":{"x":-90989.1053,"y":-106364.6055,"z":0,"lat":38.70550458,"lng":-9.179135475}},{"locationId":5,"address":"Avenida Vinte e Quatro de Julho","sensors":[{"id":"QA00NO0005","unit":"µg/m3"},{"id":"QA0NO20005","unit":"µg/m3"},{"id":"QA00O30005","unit":"µg/m3"},{"id":"QAPM250005","unit":"µg/m3"},{"id":"QAPM100005","unit":"µg/m3"},{"id":"QA00CO0005","unit":"µg/m3"},{"id":"RULAEQ0005","unit":"dB(A)"},{"id":"ME00PA0005","unit":"mbar"},{"id":"ME00HR0005","unit":"%"},{"id":"METEMP0005","unit":"ºC"}],"coordinates":{"x":-89030,"y":-106299,"z":0,"lat":38.70629477,"lng":-9.156625047}},{"locationId":6,"address":"Avenida Infante Santo","sensors":[{"id":"RULAEQ0006","unit":"dB(A)"},{"id":"ME00PA0006","unit":"mbar"},{"id":"ME00HR0006","unit":"%"},{"id":"METEMP0006","unit":"ºC"}],"coordinates":{"x":-90000.2293,"y":-106196.9223,"z":0,"lat":38.707116,"lng":-9.167790678}},{"locationId":7,"address":"Santa Apolónia - Avenida Infante Dom Henrique","sensors":[{"id":"QA00NO0007","unit":"µg/m3"},{"id":"QA0NO20007","unit":"µg/m3"},{"id":"QA00O30007","unit":"µg/m3"},{"id":"QAPM250007","unit":"µg/m3"},{"id":"QAPM100007","unit":"µg/m3"},{"id":"QA0SO20007","unit":"µg/m3"},{"id":"QAC6H60007","unit":"µg/m3"},{"id":"QA00CO0007","unit":"µg/m3"},{"id":"RULAEQ0007","unit":"dB(A)"},{"id":"ME00PA0007","unit":"mbar"},{"id":"ME00HR0007","unit":"%"},{"id":"METEMP0007","unit":"ºC"},{"id":"ME00VI0007","unit":"km/h"},{"id":"ME00VD0007","unit":"º"}],"coordinates":{"x":-86150.5924153,"y":-105527.272627,"z":0,"lat":38.71271031,"lng":-9.123678666}},{"locationId":8,"address":"Baixa - Rua do Ouro","sensors":[{"id":"QA0NO20008","unit":"µg/m3"},{"id":"QAPM250008","unit":"µg/m3"},{"id":"QAPM100008","unit":"µg/m3"},{"id":"QA00CO0008","unit":"µg/m3"},{"id":"RULAEQ0008","unit":"dB(A)"},{"id":"ME00PA0008","unit":"mbar"},{"id":"ME00HR0008","unit":"%"},{"id":"METEMP0008","unit":"ºC"}],"coordinates":{"x":-87413.3926,"y":-105994.752,"z":0,"lat":38.70919626,"lng":-9.138081068}},{"locationId":9,"address":"Praça do Comércio","sensors":[{"id":"QA00NO0009","unit":"µg/m3"},{"id":"QA0NO20009","unit":"µg/m3"},{"id":"QA00O30009","unit":"µg/m3"},{"id":"QAPM250009","unit":"µg/m3"},{"id":"QAPM100009","unit":"µg/m3"},{"id":"QA00CO0009","unit":"µg/m3"},{"id":"RULAEQ0009","unit":"dB(A)"},{"id":"ME00PA0009","unit":"mbar"},{"id":"ME00HR0009","unit":"%"},{"id":"METEMP0009","unit":"ºC"}],"coordinates":{"x":-86288.2424,"y":-105644.2158,"z":0,"lat":38.70689586,"lng":-9.136210072}},{"locationId":10,"address":"Alto da Ajuda - Rua Sá Nogueira","sensors":[{"id":"QA0NO20010","unit":"µg/m3"},{"id":"QAPM250010","unit":"µg/m3"},{"id":"QAPM100010","unit":"µg/m3"},{"id":"QA00CO0010","unit":"µg/m3"},{"id":"ME00PA0010","unit":"mbar"},{"id":"ME00HR0010","unit":"%"},{"id":"METEMP0010","unit":"ºC"}],"coordinates":{"x":-92368.6953,"y":-105730.1565,"z":0,"lat":38.7110759,"lng":-9.195077515}},{"locationId":11,"address":"Avenida de Ceuta","sensors":[{"id":"QA00NO0011","unit":"µg/m3"},{"id":"QA0NO20011","unit":"µg/m3"},{"id":"QAPM250011","unit":"µg/m3"},{"id":"QAPM100011","unit":"µg/m3"},{"id":"RULAEQ0011","unit":"dB(A)"},{"id":"ME00PA0011","unit":"mbar"},{"id":"ME00HR0011","unit":"%"},{"id":"METEMP0011","unit":"ºC"}],"coordinates":{"x":-90622.7279,"y":-104679.5295,"z":0,"lat":38.72071916,"lng":-9.17514452}},{"locationId":12,"address":"Rua de São Bento","sensors":[{"id":"QA0NO20012","unit":"µg/m3"},{"id":"QAPM250012","unit":"µg/m3"},{"id":"QAPM100012","unit":"µg/m3"},{"id":"QA00CO0012","unit":"µg/m3"},{"id":"RULAEQ0012","unit":"dB(A)"},{"id":"ME00PA0012","unit":"mbar"},{"id":"ME00HR0012","unit":"%"},{"id":"METEMP0012","unit":"ºC"}],"coordinates":{"x":-88730.0222,"y":-105450.5565,"z":0,"lat":38.71396664,"lng":-9.153285525}},{"locationId":13,"address":"Rua Damasceno Monteiro","sensors":[{"id":"RULAEQ0013","unit":"dB(A)"},{"id":"ME00PA0013","unit":"mbar"},{"id":"ME00HR0013","unit":"%"},{"id":"METEMP0013","unit":"ºC"},{"id":"QA0NO20013","unit":"µg/m3"},{"id":"QAPM250013","unit":"µg/m3"},{"id":"QAPM100013","unit":"µg/m3"},{"id":"QA00CO0013","unit":"µg/m3"}],"coordinates":{"x":-87012.5290804,"y":-105417.321158,"z":0,"lat":38.7144366,"lng":-9.133545573}},{"locationId":14,"address":"Praça Martim Moniz","sensors":[{"id":"QA00NO0014","unit":"µg/m3"},{"id":"QA0NO20014","unit":"µg/m3"},{"id":"QA00O30014","unit":"µg/m3"},{"id":"QAPM250014","unit":"µg/m3"},{"id":"QAPM100014","unit":"µg/m3"},{"id":"QA00CO0014","unit":"µg/m3"},{"id":"RULAEQ0014","unit":"dB(A)"},{"id":"ME00PA0014","unit":"mbar"},{"id":"ME00HR0014","unit":"%"},{"id":"METEMP0014","unit":"ºC"},{"id":"ME00RG0014","unit":"W/m2"}],"coordinates":{"x":-87232.5135,"y":-105315.7198,"z":0,"lat":38.71533003,"lng":-9.1360873}},{"locationId":15,"address":"Campo de Santa Clara","sensors":[{"id":"QA00NO0015","unit":"µg/m3"},{"id":"QA0NO20015","unit":"µg/m3"},{"id":"QA00O30015","unit":"µg/m3"},{"id":"QAPM250015","unit":"µg/m3"},{"id":"QAPM100015","unit":"µg/m3"},{"id":"QA00CO0015","unit":"µg/m3"},{"id":"ME00PA0015","unit":"mbar"},{"id":"ME00HR0015","unit":"%"},{"id":"METEMP0015","unit":"ºC"},{"id":"ME00UV0015","unit":""}],"coordinates":{"x":-86203.7859,"y":-105290.1984,"z":0,"lat":38.71566076,"lng":-9.124264061}},{"locationId":16,"address":"Cemitério dos Prazeres","sensors":[{"id":"QA0NO20016","unit":"µg/m3"},{"id":"QAPM250016","unit":"µg/m3"},{"id":"QAPM100016","unit":"µg/m3"},{"id":"QA00CO0016","unit":"µg/m3"},{"id":"ME00PA0016","unit":"mbar"},{"id":"ME00HR0016","unit":"%"},{"id":"METEMP0016","unit":"ºC"}],"coordinates":{"x":-90280.9102,"y":-105463.342,"z":0,"lat":38.71369455,"lng":-9.171112565}},{"locationId":17,"address":"Jardim Botânico","sensors":[{"id":"QA00NO0017","unit":"µg/m3"},{"id":"QA0NO20017","unit":"µg/m3"},{"id":"QAPM250017","unit":"µg/m3"},{"id":"QAPM100017","unit":"µg/m3"},{"id":"RULAEQ0017","unit":"dB(A)"},{"id":"ME00PA0017","unit":"mbar"},{"id":"ME00HR0017","unit":"%"},{"id":"METEMP0017","unit":"ºC"}],"coordinates":{"x":-88358.8048,"y":-104969.3262,"z":0,"lat":38.71788174,"lng":-9.150015297}},{"locationId":18,"address":"Parque de Campismo de Lisboa","sensors":[{"id":"QA0NO20018","unit":"µg/m3"},{"id":"QAPM250018","unit":"µg/m3"},{"id":"QAPM100018","unit":"µg/m3"},{"id":"QA00CO0018","unit":"µg/m3"},{"id":"RULAEQ0018","unit":"dB(A)"},{"id":"ME00PA0018","unit":"mbar"},{"id":"ME00HR0018","unit":"%"},{"id":"METEMP0018","unit":"ºC"}],"coordinates":{"x":-93395.7023929,"y":-104309.46051,"z":0,"lat":38.72376372,"lng":-9.207074661}},{"locationId":19,"address":"Monsanto - Alameda Keil do Amaral","sensors":[{"id":"QA00NO0019","unit":"µg/m3"},{"id":"QA0NO20019","unit":"µg/m3"},{"id":"QA00O30019","unit":"µg/m3"},{"id":"QAPM250019","unit":"µg/m3"},{"id":"QAPM100019","unit":"µg/m3"},{"id":"QA00CO0019","unit":"µg/m3"},{"id":"RULAEQ0019","unit":"dB(A)"},{"id":"ME00PA0019","unit":"mbar"},{"id":"ME00HR0019","unit":"%"},{"id":"METEMP0019","unit":"ºC"}],"coordinates":{"x":-92395,"y":-104728,"z":0,"lat":38.72009921,"lng":-9.195513512}},{"locationId":20,"address":"Avenida da Liberdade - Rua Manuel Jesus Coelho","sensors":[{"id":"QA0NO20020","unit":"µg/m3"},{"id":"QAPM250020","unit":"µg/m3"},{"id":"QAPM100020","unit":"µg/m3"},{"id":"QA00CO0020","unit":"µg/m3"},{"id":"RULAEQ0020","unit":"dB(A)"},{"id":"ME00PA0020","unit":"mbar"},{"id":"ME00HR0020","unit":"%"},{"id":"METEMP0020","unit":"ºC"}],"coordinates":{"x":-88091.2606,"y":-104677.567772,"z":0,"lat":38.72099262,"lng":-9.146040679}},{"locationId":21,"address":"Rua dos Sapadores","sensors":[{"id":"QA00NO0021","unit":"µg/m3"},{"id":"QA0NO20021","unit":"µg/m3"},{"id":"QA00O30021","unit":"µg/m3"},{"id":"QAPM250021","unit":"µg/m3"},{"id":"QAPM100021","unit":"µg/m3"},{"id":"QA00CO0021","unit":"µg/m3"},{"id":"RULAEQ0021","unit":"dB(A)"},{"id":"ME00PA0021","unit":"mbar"},{"id":"ME00HR0021","unit":"%"},{"id":"METEMP0021","unit":"ºC"}],"coordinates":{"x":-86375,"y":-104678,"z":0,"lat":38.72115802,"lng":-9.126308694}},{"locationId":22,"address":"Campo de Ourique","sensors":[{"id":"QA00NO0022","unit":"µg/m3"},{"id":"QA0NO20022","unit":"µg/m3"},{"id":"QA00O30022","unit":"µg/m3"},{"id":"QAPM250022","unit":"µg/m3"},{"id":"QAPM100022","unit":"µg/m3"},{"id":"QA00CO0022","unit":"µg/m3"},{"id":"RULAEQ0022","unit":"dB(A)"},{"id":"ME00PA0022","unit":"mbar"},{"id":"ME00HR0022","unit":"%"},{"id":"METEMP0022","unit":"ºC"}],"coordinates":{"x":-90010.1901,"y":-104685.2005,"z":0,"lat":38.72073064,"lng":-9.168101516}},{"locationId":23,"address":"Avenida Almirante Reis","sensors":[{"id":"QA00NO0023","unit":"µg/m3"},{"id":"QA0NO20023","unit":"µg/m3"},{"id":"QA00O30023","unit":"µg/m3"},{"id":"QAPM250023","unit":"µg/m3"},{"id":"QAPM100023","unit":"µg/m3"},{"id":"QA00CO0023","unit":"µg/m3"},{"id":"RULAEQ0023","unit":"dB(A)"},{"id":"ME00PA0023","unit":"mbar"},{"id":"ME00HR0023","unit":"%"},{"id":"METEMP0023","unit":"ºC"}],"coordinates":{"x":-87155,"y":-104370,"z":0,"lat":38.72385559,"lng":-9.135315162}},{"locationId":24,"address":"Rua Braamcamp","sensors":[{"id":"QA00NO0024","unit":"µg/m3"},{"id":"QA0NO20024","unit":"µg/m3"},{"id":"QA00O30024","unit":"µg/m3"},{"id":"QAPM250024","unit":"µg/m3"},{"id":"QAPM100024","unit":"µg/m3"},{"id":"QA00CO0024","unit":"µg/m3"},{"id":"RULAEQ0024","unit":"dB(A)"},{"id":"ME00PA0024","unit":"mbar"},{"id":"ME00HR0024","unit":"%"},{"id":"METEMP0024","unit":"ºC"}],"coordinates":{"x":-88550.9634,"y":-104566.735229,"z":0,"lat":38.72193774,"lng":-9.152167455}},{"locationId":25,"address":"Monsanto - Parque Ecológico","sensors":[{"id":"QA0NO20025","unit":"µg/m3"},{"id":"QA00O30025","unit":"µg/m3"},{"id":"QAPM250025","unit":"µg/m3"},{"id":"QAPM100025","unit":"µg/m3"},{"id":"QA00CO0025","unit":"µg/m3"},{"id":"ME00PA0025","unit":"mbar"},{"id":"ME00HR0025","unit":"%"},{"id":"METEMP0025","unit":"ºC"}],"coordinates":{"x":-91599.1099218,"y":-102497.814875,"z":0,"lat":38.74026849,"lng":-9.186658409}},{"locationId":26,"address":"Parada Alto de São João","sensors":[{"id":"QA0NO20026","unit":"µg/m3"},{"id":"QA00O30026","unit":"µg/m3"},{"id":"QAPM250026","unit":"µg/m3"},{"id":"QAPM100026","unit":"µg/m3"},{"id":"QA00CO0026","unit":"µg/m3"},{"id":"ME00PA0026","unit":"mbar"},{"id":"ME00HR0026","unit":"%"},{"id":"METEMP0026","unit":"ºC"}],"coordinates":{"x":-86007.1276,"y":-103793.9521,"z":0,"lat":38.72915635,"lng":-9.122189}},{"locationId":27,"address":"Marquês de Pombal - Alameda Edgar Cardoso","sensors":[{"id":"ME00PA0027","unit":"mbar"},{"id":"ME00HR0027","unit":"%"},{"id":"METEMP0027","unit":"ºC"}],"coordinates":{"x":-88532.0078,"y":-104119,"z":0,"lat":38.72597949,"lng":-9.151179334}},{"locationId":28,"address":"Beato - Avenida Infante Dom Henrique","sensors":[{"id":"QA00NO0028","unit":"µg/m3"},{"id":"QA0NO20028","unit":"µg/m3"},{"id":"QA00O30028","unit":"µg/m3"},{"id":"QAPM250028","unit":"µg/m3"},{"id":"QAPM100028","unit":"µg/m3"},{"id":"QA00CO0028","unit":"µg/m3"},{"id":"RULAEQ0028","unit":"dB(A)"},{"id":"ME00PA0028","unit":"mbar"},{"id":"ME00HR0028","unit":"%"},{"id":"METEMP0028","unit":"ºC"}],"coordinates":{"x":-84726,"y":-103853,"z":0,"lat":38.72874822,"lng":-9.107450823}},{"locationId":29,"address":"Avenida Fontes Pereira de Melo","sensors":[{"id":"QA00NO0029","unit":"µg/m3"},{"id":"QA0NO20029","unit":"µg/m3"},{"id":"QA00O30029","unit":"µg/m3"},{"id":"QAPM250029","unit":"µg/m3"},{"id":"QAPM100029","unit":"µg/m3"},{"id":"QA00CO0029","unit":"µg/m3"},{"id":"RULAEQ0029","unit":"dB(A)"},{"id":"ME00PA0029","unit":"mbar"},{"id":"ME00HR0029","unit":"%"},{"id":"METEMP0029","unit":"ºC"}],"coordinates":{"x":-88178,"y":-103699,"z":0,"lat":38.7297977,"lng":-9.147162502}},{"locationId":30,"address":"Avenida António Augusto de Aguiar","sensors":[{"id":"QA00NO0030","unit":"µg/m3"},{"id":"QA0NO20030","unit":"µg/m3"},{"id":"QA00O30030","unit":"µg/m3"},{"id":"QAPM250030","unit":"µg/m3"},{"id":"QAPM100030","unit":"µg/m3"},{"id":"QA00CO0030","unit":"µg/m3"},{"id":"RULAEQ0030","unit":"dB(A)"},{"id":"ME00PA0030","unit":"mbar"},{"id":"ME00HR0030","unit":"%"},{"id":"METEMP0030","unit":"ºC"}],"coordinates":{"x":-88559.4284,"y":-103521.7846,"z":0,"lat":38.73135571,"lng":-9.151570982}},{"locationId":57,"address":"Campo Grande - Museu da Cidade","sensors":[{"id":"QA00NO0057","unit":"µg/m3"},{"id":"QA0NO20057","unit":"µg/m3"},{"id":"QA00O30057","unit":"µg/m3"},{"id":"QAPM250057","unit":"µg/m3"},{"id":"QAPM100057","unit":"µg/m3"},{"id":"QA00CO0057","unit":"µg/m3"},{"id":"RULAEQ0057","unit":"dB(A)"},{"id":"ME00PA0057","unit":"mbar"},{"id":"ME00HR0057","unit":"%"},{"id":"METEMP0057","unit":"ºC"},{"id":"ME00PP0057","unit":"mm"}],"coordinates":{"x":-88914.7667,"y":-100480.5563,"z":0,"lat":38.7587115,"lng":-9.156047675}},{"locationId":31,"address":"Largo da Madre de Deus","sensors":[{"id":"QA00NO0031","unit":"µg/m3"},{"id":"QA0NO20031","unit":"µg/m3"},{"id":"QA00O30031","unit":"µg/m3"},{"id":"QAPM250031","unit":"µg/m3"},{"id":"QAPM100031","unit":"µg/m3"},{"id":"QAC6H60031","unit":"µg/m3"},{"id":"QA00CO0031","unit":"µg/m3"},{"id":"RULAEQ0031","unit":"dB(A)"},{"id":"ME00PA0031","unit":"mbar"},{"id":"ME00HR0031","unit":"%"},{"id":"METEMP0031","unit":"ºC"}],"coordinates":{"x":-85362.1995248,"y":-103483.992963,"z":0,"lat":38.73201061,"lng":-9.114811563}},{"locationId":32,"address":"Rua de Campolide","sensors":[{"id":"QA0NO20032","unit":"µg/m3"},{"id":"QA00O30032","unit":"µg/m3"},{"id":"QAPM250032","unit":"µg/m3"},{"id":"QAPM100032","unit":"µg/m3"},{"id":"QA00CO0032","unit":"µg/m3"},{"id":"RULAEQ0032","unit":"dB(A)"},{"id":"ME00PA0032","unit":"mbar"},{"id":"ME00HR0032","unit":"%"},{"id":"METEMP0032","unit":"ºC"},{"id":"ME00UV0032","unit":""}],"coordinates":{"x":-89530.5767,"y":-103374.27,"z":0,"lat":38.73258651,"lng":-9.162756915}},{"locationId":33,"address":"Largo do Leão","sensors":[{"id":"QA00NO0033","unit":"µg/m3"},{"id":"QA0NO20033","unit":"µg/m3"},{"id":"QA00O30033","unit":"µg/m3"},{"id":"QAPM250033","unit":"µg/m3"},{"id":"QAPM100033","unit":"µg/m3"},{"id":"QA00CO0033","unit":"µg/m3"},{"id":"RULAEQ0033","unit":"dB(A)"},{"id":"ME00PA0033","unit":"mbar"},{"id":"ME00HR0033","unit":"%"},{"id":"METEMP0033","unit":"ºC"}],"coordinates":{"x":-86854,"y":-103360,"z":0,"lat":38.73298208,"lng":-9.131981083}},{"locationId":34,"address":"Avenida da Républica","sensors":[{"id":"QA00NO0034","unit":"µg/m3"},{"id":"QA0NO20034","unit":"µg/m3"},{"id":"QA00O30034","unit":"µg/m3"},{"id":"QAPM250034","unit":"µg/m3"},{"id":"QAPM100034","unit":"µg/m3"},{"id":"QA00CO0034","unit":"µg/m3"},{"id":"RULAEQ0034","unit":"dB(A)"},{"id":"ME00PA0034","unit":"mbar"},{"id":"ME00HR0034","unit":"%"},{"id":"METEMP0034","unit":"ºC"},{"id":"CT0VTH0034","unit":"Veículos"}],"coordinates":{"x":-88039.8519,"y":-103019.5149,"z":0,"lat":38.73593143,"lng":-9.145660419}},{"locationId":35,"address":"Praça São Francisco de Assis","sensors":[{"id":"QA00NO0035","unit":"µg/m3"},{"id":"QA0NO20035","unit":"µg/m3"},{"id":"QA00O30035","unit":"µg/m3"},{"id":"QAPM250035","unit":"µg/m3"},{"id":"QAPM100035","unit":"µg/m3"},{"id":"QA00CO0035","unit":"µg/m3"},{"id":"RULAEQ0035","unit":"dB(A)"},{"id":"ME00PA0035","unit":"mbar"},{"id":"ME00HR0035","unit":"%"},{"id":"METEMP0035","unit":"ºC"}],"coordinates":{"x":-90230.6469,"y":-99810.6454518,"z":0,"lat":38.76452521,"lng":-9.180960232}},{"locationId":36,"address":"Estrada de Monsanto","sensors":[{"id":"QA00NO0036","unit":"µg/m3"},{"id":"QA0NO20036","unit":"µg/m3"},{"id":"QA00O30036","unit":"µg/m3"},{"id":"QAPM250036","unit":"µg/m3"},{"id":"QAPM100036","unit":"µg/m3"},{"id":"QA00CO0036","unit":"µg/m3"},{"id":"RULAEQ0036","unit":"dB(A)"},{"id":"ME00PA0036","unit":"mbar"},{"id":"ME00HR0036","unit":"%"},{"id":"METEMP0036","unit":"ºC"}],"coordinates":{"x":-92782,"y":-103006,"z":0,"lat":38.73556808,"lng":-9.20019342}},{"locationId":37,"address":"Praça de Espanha","sensors":[{"id":"RULAEQ0037","unit":"dB(A)"},{"id":"ME00PA0037","unit":"mbar"},{"id":"ME00HR0037","unit":"%"},{"id":"METEMP0037","unit":"ºC"},{"id":"ME00PP0037","unit":"mm"}],"coordinates":{"x":-89242.4546,"y":-102762.485,"z":0,"lat":38.73812581,"lng":-9.159522719}},{"locationId":38,"address":"Marvila - Rua Pedro de Azevedo","sensors":[{"id":"QA00NO0038","unit":"µg/m3"},{"id":"QA0NO20038","unit":"µg/m3"},{"id":"QA00O30038","unit":"µg/m3"},{"id":"QAPM250038","unit":"µg/m3"},{"id":"QAPM100038","unit":"µg/m3"},{"id":"QA00CO0038","unit":"µg/m3"},{"id":"RULAEQ0038","unit":"dB(A)"},{"id":"ME00PA0038","unit":"mbar"},{"id":"ME00HR0038","unit":"%"},{"id":"METEMP0038","unit":"ºC"}],"coordinates":{"x":-84248.9417,"y":-102673.4017,"z":0,"lat":38.74510721,"lng":-9.107689329}},{"locationId":39,"address":"Estrada de Benfica","sensors":[{"id":"QA00NO0039","unit":"µg/m3"},{"id":"QA0NO20039","unit":"µg/m3"},{"id":"QA00O30039","unit":"µg/m3"},{"id":"QAPM250039","unit":"µg/m3"},{"id":"QAPM100039","unit":"µg/m3"},{"id":"QA00CO0039","unit":"µg/m3"},{"id":"RULAEQ0039","unit":"dB(A)"},{"id":"ME00PA0039","unit":"mbar"},{"id":"ME00HR0039","unit":"%"},{"id":"METEMP0039","unit":"ºC"}],"coordinates":{"x":-90832.4481,"y":-102079.8348,"z":0,"lat":38.74411222,"lng":-9.177896684}},{"locationId":40,"address":"Avenida João XXI","sensors":[{"id":"QA00NO0040","unit":"µg/m3"},{"id":"QA0NO20040","unit":"µg/m3"},{"id":"QAPM250040","unit":"µg/m3"},{"id":"QAPM100040","unit":"µg/m3"},{"id":"RULAEQ0040","unit":"dB(A)"},{"id":"ME00PA0040","unit":"mbar"},{"id":"ME00HR0040","unit":"%"},{"id":"METEMP0040","unit":"ºC"}],"coordinates":{"x":-87654.9253744,"y":-102351.22167,"z":0,"lat":38.74198884,"lng":-9.141318624}},{"locationId":41,"address":"Jardim do Braço de Prata","sensors":[{"id":"ME00PA0041","unit":"mbar"},{"id":"ME00HR0041","unit":"%"},{"id":"METEMP0041","unit":"ºC"}],"coordinates":{"x":-83866.0291956,"y":-102122.169307,"z":0,"lat":38.7444196,"lng":-9.097772226}},{"locationId":42,"address":"Travessa de Francisco Rezende","sensors":[{"id":"QA00NO0042","unit":"µg/m3"},{"id":"QA0NO20042","unit":"µg/m3"},{"id":"QAPM250042","unit":"µg/m3"},{"id":"QAPM100042","unit":"µg/m3"},{"id":"RULAEQ0042","unit":"dB(A)"},{"id":"ME00PA0042","unit":"mbar"},{"id":"ME00HR0042","unit":"%"},{"id":"METEMP0042","unit":"ºC"}],"coordinates":{"x":-92258.9756,"y":-102128.3935,"z":0,"lat":38.74352708,"lng":-9.19429606}},{"locationId":43,"address":"Avenida Almirante Gago Coutinho","sensors":[{"id":"QA00NO0043","unit":"µg/m3"},{"id":"QA0NO20043","unit":"µg/m3"},{"id":"QA00O30043","unit":"µg/m3"},{"id":"QAPM250043","unit":"µg/m3"},{"id":"QAPM100043","unit":"µg/m3"},{"id":"QA00CO0043","unit":"µg/m3"},{"id":"RULAEQ0043","unit":"dB(A)"},{"id":"ME00PA0043","unit":"mbar"},{"id":"ME00HR0043","unit":"%"},{"id":"METEMP0043","unit":"ºC"}],"coordinates":{"x":-86856.5088985,"y":-102110.160221,"z":0,"lat":38.74423887,"lng":-9.132166767}},{"locationId":44,"address":"Avenida do Santo Condestável","sensors":[{"id":"QA00NO0044","unit":"µg/m3"},{"id":"QA0NO20044","unit":"µg/m3"},{"id":"QA00O30044","unit":"µg/m3"},{"id":"QAPM250044","unit":"µg/m3"},{"id":"QAPM100044","unit":"µg/m3"},{"id":"QA00CO0044","unit":"µg/m3"},{"id":"RULAEQ0044","unit":"dB(A)"},{"id":"ME00PA0044","unit":"mbar"},{"id":"ME00HR0044","unit":"%"},{"id":"METEMP0044","unit":"ºC"}],"coordinates":{"x":-85491,"y":-102086,"z":0,"lat":38.74458965,"lng":-9.116465287}},{"locationId":45,"address":"Rua Frei Carlos","sensors":[{"id":"QA0NO20045","unit":"µg/m3"},{"id":"QA00O30045","unit":"µg/m3"},{"id":"QAPM250045","unit":"µg/m3"},{"id":"QAPM100045","unit":"µg/m3"},{"id":"QA00CO0045","unit":"µg/m3"},{"id":"ME00PA0045","unit":"mbar"},{"id":"ME00HR0045","unit":"%"},{"id":"METEMP0045","unit":"ºC"},{"id":"ME00UV0045","unit":""}],"coordinates":{"x":-89021,"y":-101951,"z":0,"lat":38.74545696,"lng":-9.157080438}},{"locationId":46,"address":"Entrecampos","sensors":[{"id":"QA0NO20046","unit":"µg/m3"},{"id":"QA00O30046","unit":"µg/m3"},{"id":"QAPM250046","unit":"µg/m3"},{"id":"QAPM100046","unit":"µg/m3"},{"id":"QA00CO0046","unit":"µg/m3"},{"id":"RULAEQ0046","unit":"dB(A)"},{"id":"ME00PA0046","unit":"mbar"},{"id":"ME00HR0046","unit":"%"},{"id":"METEMP0046","unit":"ºC"}],"coordinates":{"x":-88298.4125452,"y":-101585.429043,"z":0,"lat":38.74882206,"lng":-9.148816683}},{"locationId":47,"address":"Avenida dos Estados Unidos da América","sensors":[{"id":"QA00NO0047","unit":"µg/m3"},{"id":"QA0NO20047","unit":"µg/m3"},{"id":"QA00O30047","unit":"µg/m3"},{"id":"QAPM250047","unit":"µg/m3"},{"id":"QAPM100047","unit":"µg/m3"},{"id":"QA00CO0047","unit":"µg/m3"},{"id":"RULAEQ0047","unit":"dB(A)"},{"id":"ME00PA0047","unit":"mbar"},{"id":"ME00HR0047","unit":"%"},{"id":"METEMP0047","unit":"ºC"}],"coordinates":{"x":-87200.6266,"y":-101550.1594,"z":0,"lat":38.74924877,"lng":-9.136194962}},{"locationId":48,"address":"Avenida Lusíada","sensors":[{"id":"QA00NO0048","unit":"µg/m3"},{"id":"QA0NO20048","unit":"µg/m3"},{"id":"QA00O30048","unit":"µg/m3"},{"id":"QAPM250048","unit":"µg/m3"},{"id":"QAPM100048","unit":"µg/m3"},{"id":"QA00CO0048","unit":"µg/m3"},{"id":"RULAEQ0048","unit":"dB(A)"},{"id":"ME00PA0048","unit":"mbar"},{"id":"ME00HR0048","unit":"%"},{"id":"METEMP0048","unit":"ºC"}],"coordinates":{"x":-90821,"y":-101473,"z":0,"lat":38.74957895,"lng":-9.177844679}},{"locationId":49,"address":"Avenida de Roma","sensors":[{"id":"QA00NO0049","unit":"µg/m3"},{"id":"QA0NO20049","unit":"µg/m3"},{"id":"QA00O30049","unit":"µg/m3"},{"id":"QAPM250049","unit":"µg/m3"},{"id":"QAPM100049","unit":"µg/m3"},{"id":"QA00CO0049","unit":"µg/m3"},{"id":"RULAEQ0049","unit":"dB(A)"},{"id":"ME00PA0049","unit":"mbar"},{"id":"ME00HR0049","unit":"%"},{"id":"METEMP0049","unit":"ºC"}],"coordinates":{"x":-87754,"y":-101374,"z":0,"lat":38.75078059,"lng":-9.14258196}},{"locationId":50,"address":"Chelas - Rua Dr. José Espirito Santo","sensors":[{"id":"QA0NO20050","unit":"µg/m3"},{"id":"QAPM250050","unit":"µg/m3"},{"id":"QAPM100050","unit":"µg/m3"},{"id":"QA00CO0050","unit":"µg/m3"},{"id":"ME00PA0050","unit":"mbar"},{"id":"ME00HR0050","unit":"%"},{"id":"METEMP0050","unit":"ºC"},{"id":"ME00VI0050","unit":"km/h"},{"id":"ME00VD0050","unit":"º"}],"coordinates":{"x":-84546.2939,"y":-101218.7354,"z":0,"lat":38.75249186,"lng":-9.10570629}},{"locationId":51,"address":"Avenida José Régio","sensors":[{"id":"QA00NO0051","unit":"µg/m3"},{"id":"QA0NO20051","unit":"µg/m3"},{"id":"QA00O30051","unit":"µg/m3"},{"id":"QAPM250051","unit":"µg/m3"},{"id":"QAPM100051","unit":"µg/m3"},{"id":"QA00CO0051","unit":"µg/m3"},{"id":"RULAEQ0051","unit":"dB(A)"},{"id":"ME00PA0051","unit":"mbar"},{"id":"ME00HR0051","unit":"%"},{"id":"METEMP0051","unit":"ºC"}],"coordinates":{"x":-86461.3973,"y":-101146.4179,"z":0,"lat":38.75295783,"lng":-9.127743116}},{"locationId":52,"address":"Avenida Lusíada / Qta da Granja","sensors":[{"id":"QA00NO0052","unit":"µg/m3"},{"id":"QA0NO20052","unit":"µg/m3"},{"id":"QA00O30052","unit":"µg/m3"},{"id":"QAPM250052","unit":"µg/m3"},{"id":"QAPM100052","unit":"µg/m3"},{"id":"QA00CO0052","unit":"µg/m3"},{"id":"RULAEQ0052","unit":"dB(A)"},{"id":"ME00PA0052","unit":"mbar"},{"id":"ME00HR0052","unit":"%"},{"id":"METEMP0052","unit":"ºC"},{"id":"ME00UV0052","unit":""}],"coordinates":{"x":-92047.3011,"y":-100986.1557,"z":0,"lat":38.75383684,"lng":-9.192013682}},{"locationId":53,"address":"Rua Lúcio de Azevedo","sensors":[{"id":"QA00NO0053","unit":"µg/m3"},{"id":"QA0NO20053","unit":"µg/m3"},{"id":"QA00O30053","unit":"µg/m3"},{"id":"QAPM250053","unit":"µg/m3"},{"id":"QAPM100053","unit":"µg/m3"},{"id":"QA00CO0053","unit":"µg/m3"},{"id":"RULAEQ0053","unit":"dB(A)"},{"id":"ME00PA0053","unit":"mbar"},{"id":"ME00HR0053","unit":"%"},{"id":"METEMP0053","unit":"ºC"}],"coordinates":{"x":-90570.1444,"y":-100997.5206,"z":0,"lat":38.75388717,"lng":-9.175021726}},{"locationId":54,"address":"Avenida Marechal Gomes da Costa","sensors":[{"id":"QA00NO0054","unit":"µg/m3"},{"id":"QA0NO20054","unit":"µg/m3"},{"id":"QA00O30054","unit":"µg/m3"},{"id":"QAPM250054","unit":"µg/m3"},{"id":"QAPM100054","unit":"µg/m3"},{"id":"QA00CO0054","unit":"µg/m3"},{"id":"RULAEQ0054","unit":"dB(A)"},{"id":"ME00PA0054","unit":"mbar"},{"id":"ME00HR0054","unit":"%"},{"id":"METEMP0054","unit":"ºC"}],"coordinates":{"x":-84587.4449,"y":-100762.9207,"z":0,"lat":38.75659337,"lng":-9.106235364}},{"locationId":55,"address":"Avenida do Brasil","sensors":[{"id":"QA00NO0055","unit":"µg/m3"},{"id":"QA0NO20055","unit":"µg/m3"},{"id":"QA00O30055","unit":"µg/m3"},{"id":"QAPM250055","unit":"µg/m3"},{"id":"QAPM100055","unit":"µg/m3"},{"id":"QA00CO0055","unit":"µg/m3"},{"id":"RULAEQ0055","unit":"dB(A)"},{"id":"ME00PA0055","unit":"mbar"},{"id":"ME00HR0055","unit":"%"},{"id":"METEMP0055","unit":"ºC"}],"coordinates":{"x":-88130,"y":-100741,"z":0,"lat":38.75644442,"lng":-9.146987283}},{"locationId":56,"address":"Avenida General Norton de Matos","sensors":[{"id":"QA00NO0056","unit":"µg/m3"},{"id":"QA0NO20056","unit":"µg/m3"},{"id":"QA00O30056","unit":"µg/m3"},{"id":"QAPM250056","unit":"µg/m3"},{"id":"QAPM100056","unit":"µg/m3"},{"id":"QA00CO0056","unit":"µg/m3"},{"id":"RULAEQ0056","unit":"dB(A)"},{"id":"ME00PA0056","unit":"mbar"},{"id":"ME00HR0056","unit":"%"},{"id":"METEMP0056","unit":"ºC"}],"coordinates":{"x":-90601.0767,"y":-100598.0552,"z":0,"lat":38.75748184,"lng":-9.175429845}},{"locationId":58,"address":"Jardim Professor António Franco","sensors":[{"id":"QA00NO0058","unit":"µg/m3"},{"id":"QA0NO20058","unit":"µg/m3"},{"id":"QA00O30058","unit":"µg/m3"},{"id":"QAPM250058","unit":"µg/m3"},{"id":"QAPM100058","unit":"µg/m3"},{"id":"QA00CO0058","unit":"µg/m3"},{"id":"RULAEQ0058","unit":"dB(A)"},{"id":"ME00PA0058","unit":"mbar"},{"id":"ME00HR0058","unit":"%"},{"id":"METEMP0058","unit":"ºC"}],"coordinates":{"x":-90019.9497,"y":-100279.5821,"z":0,"lat":38.76040964,"lng":-9.168786739}},{"locationId":59,"address":"Parque da Vinha - Estação Meteorológica","sensors":[{"id":"QA0NO20059","unit":"µg/m3"},{"id":"QAPM250059","unit":"µg/m3"},{"id":"QAPM100059","unit":"µg/m3"},{"id":"QA00CO0059","unit":"µg/m3"},{"id":"ME00PA0059","unit":"mbar"},{"id":"ME00HR0059","unit":"%"},{"id":"METEMP0059","unit":"ºC"}],"coordinates":{"x":-86390.3012,"y":-100146.7938,"z":0,"lat":38.76196817,"lng":-9.127050234}},{"locationId":60,"address":"Olivais Sul - Quinta Pedagógica","sensors":[{"id":"QA0NO20060","unit":"µg/m3"},{"id":"QAPM250060","unit":"µg/m3"},{"id":"QAPM100060","unit":"µg/m3"},{"id":"QA00CO0060","unit":"µg/m3"},{"id":"ME00PA0060","unit":"mbar"},{"id":"ME00HR0060","unit":"%"},{"id":"METEMP0060","unit":"ºC"},{"id":"ME00UV0060","unit":""}],"coordinates":{"x":-85061.7123,"y":-100006.3866,"z":0,"lat":38.76336177,"lng":-9.111783853}},{"locationId":61,"address":"Quinta das Conchas  - Avenida Maria Helena Vieira da Silva","sensors":[{"id":"QA00NO0061","unit":"µg/m3"},{"id":"QA0NO20061","unit":"µg/m3"},{"id":"QA00O30061","unit":"µg/m3"},{"id":"QAPM250061","unit":"µg/m3"},{"id":"QAPM100061","unit":"µg/m3"},{"id":"QA00CO0061","unit":"µg/m3"},{"id":"RULAEQ0061","unit":"dB(A)"},{"id":"ME00PA0061","unit":"mbar"},{"id":"ME00HR0061","unit":"%"},{"id":"METEMP0061","unit":"ºC"}],"coordinates":{"x":-88841.8953882,"y":-99593.6025095,"z":0,"lat":38.76670734,"lng":-9.155323413}},{"locationId":62,"address":"Estrada do Paço do Lumiar","sensors":[{"id":"QA00NO0062","unit":"µg/m3"},{"id":"QA0NO20062","unit":"µg/m3"},{"id":"QA00O30062","unit":"µg/m3"},{"id":"QAPM250062","unit":"µg/m3"},{"id":"QAPM100062","unit":"µg/m3"},{"id":"QA00CO0062","unit":"µg/m3"},{"id":"RULAEQ0062","unit":"dB(A)"},{"id":"ME00PA0062","unit":"mbar"},{"id":"ME00HR0062","unit":"%"},{"id":"METEMP0062","unit":"ºC"}],"coordinates":{"x":-90645.0483,"y":-99147.4463,"z":0,"lat":38.77054241,"lng":-9.176125845}},{"locationId":63,"address":"Estrada Militar","sensors":[{"id":"QA0NO20063","unit":"µg/m3"},{"id":"QA00O30063","unit":"µg/m3"},{"id":"QAPM250063","unit":"µg/m3"},{"id":"QAPM100063","unit":"µg/m3"},{"id":"QA00CO0063","unit":"µg/m3"},{"id":"ME00PA0063","unit":"mbar"},{"id":"ME00HR0063","unit":"%"},{"id":"METEMP0063","unit":"ºC"},{"id":"ME00UV0063","unit":""}],"coordinates":{"x":-91608.0409,"y":-98658.5229,"z":0,"lat":38.77484653,"lng":-9.187269711}},{"locationId":64,"address":"Alameda da Encarnação","sensors":[{"id":"QA00NO0064","unit":"µg/m3"},{"id":"QA0NO20064","unit":"µg/m3"},{"id":"QA00O30064","unit":"µg/m3"},{"id":"QAPM250064","unit":"µg/m3"},{"id":"QAPM100064","unit":"µg/m3"},{"id":"QA00CO0064","unit":"µg/m3"},{"id":"RULAEQ0064","unit":"dB(A)"},{"id":"ME00PA0064","unit":"mbar"},{"id":"ME00HR0064","unit":"%"},{"id":"METEMP0064","unit":"ºC"}],"coordinates":{"x":-85557.2993,"y":-98869.8423,"z":0,"lat":38.7735505,"lng":-9.11762573}},{"locationId":65,"address":"Avenida Doutor Alfredo Bensaúde","sensors":[{"id":"QA00NO0065","unit":"µg/m3"},{"id":"QA0NO20065","unit":"µg/m3"},{"id":"QA00O30065","unit":"µg/m3"},{"id":"QAPM250065","unit":"µg/m3"},{"id":"QAPM100065","unit":"µg/m3"},{"id":"QA00CO0065","unit":"µg/m3"},{"id":"RULAEQ0065","unit":"dB(A)"},{"id":"ME00PA0065","unit":"mbar"},{"id":"ME00HR0065","unit":"%"},{"id":"METEMP0065","unit":"ºC"}],"coordinates":{"x":-84632,"y":-98834,"z":0,"lat":38.77396252,"lng":-9.106984035}},{"locationId":66,"address":"Rua Ilha dos Amores","sensors":[{"id":"QA0NO20066","unit":"µg/m3"},{"id":"QAPM250066","unit":"µg/m3"},{"id":"QAPM100066","unit":"µg/m3"},{"id":"QA00CO0066","unit":"µg/m3"},{"id":"RULAEQ0066","unit":"dB(A)"},{"id":"ME00PA0066","unit":"mbar"},{"id":"ME00HR0066","unit":"%"},{"id":"METEMP0066","unit":"ºC"},{"id":"ME00UV0066","unit":""}],"coordinates":{"x":-83407.2181,"y":-98395.952,"z":0,"lat":38.77802453,"lng":-9.092944984}},{"locationId":67,"address":"Rua Vasco da Gama Fernandes","sensors":[{"id":"QA0NO20067","unit":"µg/m3"},{"id":"QAPM250067","unit":"µg/m3"},{"id":"QAPM100067","unit":"µg/m3"},{"id":"QA00CO0067","unit":"µg/m3"},{"id":"ME00PA0067","unit":"mbar"},{"id":"ME00HR0067","unit":"%"},{"id":"METEMP0067","unit":"ºC"},{"id":"ME00UV0067","unit":""}],"coordinates":{"x":-87903.1571567,"y":-98372.5310825,"z":0,"lat":38.77779913,"lng":-9.144679191}},{"locationId":68,"address":"Laboratório de Bromatologia e Águas","sensors":[{"id":"QA00NO0068","unit":"µg/m3"},{"id":"QA0NO20068","unit":"µg/m3"},{"id":"QA00O30068","unit":"µg/m3"},{"id":"QAPM250068","unit":"µg/m3"},{"id":"QAPM100068","unit":"µg/m3"},{"id":"QA00CO0068","unit":"µg/m3"},{"id":"RULAEQ0068","unit":"dB(A)"},{"id":"ME00PA0068","unit":"mbar"},{"id":"ME00HR0068","unit":"%"},{"id":"METEMP0068","unit":"ºC"}],"coordinates":{"x":-86038,"y":-98023,"z":0,"lat":38.78113107,"lng":-9.123261906}},{"locationId":69,"address":"Calçada de Carriche","sensors":[{"id":"QA00NO0069","unit":"µg/m3"},{"id":"QA0NO20069","unit":"µg/m3"},{"id":"QA00O30069","unit":"µg/m3"},{"id":"QAPM250069","unit":"µg/m3"},{"id":"QAPM100069","unit":"µg/m3"},{"id":"QA00CO0069","unit":"µg/m3"},{"id":"RULAEQ0069","unit":"dB(A)"},{"id":"ME00PA0069","unit":"mbar"},{"id":"ME00HR0069","unit":"%"},{"id":"METEMP0069","unit":"ºC"},{"id":"CT0VTH0069","unit":"Veículos"}],"coordinates":{"x":-89823,"y":-97701,"z":0,"lat":38.78365404,"lng":-9.166856353}},{"locationId":70,"address":"Rua Chen He","sensors":[{"id":"QA00NO0070","unit":"µg/m3"},{"id":"QA0NO20070","unit":"µg/m3"},{"id":"QAPM250070","unit":"µg/m3"},{"id":"QAPM100070","unit":"µg/m3"},{"id":"ME00PA0070","unit":"mbar"},{"id":"ME00HR0070","unit":"%"},{"id":"METEMP0070","unit":"ºC"},{"id":"ME00RG0070","unit":"W/m2"}],"coordinates":{"x":-83558.4897161,"y":-97226.7136763,"z":0,"lat":38.78854134,"lng":-9.094827028}},{"locationId":71,"address":"Estrada Militar às Galinheiras","sensors":[{"id":"QA0NO20071","unit":"µg/m3"},{"id":"QAPM250071","unit":"µg/m3"},{"id":"QAPM100071","unit":"µg/m3"},{"id":"QA00CO0071","unit":"µg/m3"},{"id":"RULAEQ0071","unit":"dB(A)"},{"id":"ME00PA0071","unit":"mbar"},{"id":"ME00HR0071","unit":"%"},{"id":"METEMP0071","unit":"ºC"},{"id":"ME00UV0071","unit":""}],"coordinates":{"x":-88392.9253,"y":-96891.6314,"z":0,"lat":38.79108817,"lng":-9.15050406}},{"locationId":72,"address":"Rua Mário Botas","sensors":[{"id":"ME00PA0072","unit":"mbar"},{"id":"ME00HR0072","unit":"%"},{"id":"METEMP0072","unit":"ºC"}],"coordinates":{"x":-83922.2357061,"y":-100359.267937,"z":0,"lat":38.75864086,"lng":-9.098511662}},{"locationId":73,"address":"Rua Alferes Malheiro","sensors":[{"id":"QA00NO0073","unit":"µg/m3"},{"id":"QA0NO20073","unit":"µg/m3"},{"id":"QAPM250073","unit":"µg/m3"},{"id":"QAPM100073","unit":"µg/m3"},{"id":"RULAEQ0073","unit":"dB(A)"},{"id":"ME00PA0073","unit":"mbar"},{"id":"ME00HR0073","unit":"%"},{"id":"METEMP0073","unit":"ºC"}],"coordinates":{"x":-87078.9361,"y":-100471.4716,"z":0,"lat":38.75897624,"lng":-9.134931138}},{"locationId":74,"address":"Rua da Venezuela","sensors":[{"id":"RULAEQ0074","unit":"dB(A)"},{"id":"ME00PA0074","unit":"mbar"},{"id":"ME00HR0074","unit":"%"},{"id":"METEMP0074","unit":"ºC"}],"coordinates":{"x":-92962,"y":-101931,"z":0,"lat":38.74523124,"lng":-9.202407652}},{"locationId":75,"address":"Alm. P. Álvaro Proença EMQA ","sensors":[{"id":"QA0NO20075","unit":"µg/m3"},{"id":"QAPM250075","unit":"µg/m3"},{"id":"QAPM100075","unit":"µg/m3"},{"id":"QA00CO0075","unit":"µg/m3"},{"id":"RULAEQ0075","unit":"dB(A)"},{"id":"ME00PA0075","unit":"mbar"},{"id":"ME00HR0075","unit":"%"},{"id":"METEMP0075","unit":"ºC"}],"coordinates":{"x":-92895.6540286,"y":-101540.553343,"z":0,"lat":38.7487548,"lng":-9.20169705}},{"locationId":77,"address":"Rua da Atalaia","sensors":[{"id":"QA00NO0077","unit":"µg/m3"},{"id":"QA0NO20077","unit":"µg/m3"},{"id":"QA00O30077","unit":"µg/m3"},{"id":"QAPM250077","unit":"µg/m3"},{"id":"QAPM100077","unit":"µg/m3"},{"id":"RULAEQ0077","unit":"dB(A)"},{"id":"ME00PA0077","unit":"mbar"},{"id":"ME00HR0077","unit":"%"},{"id":"METEMP0077","unit":"ºC"}],"coordinates":{"x":-88028.3418889,"y":-105499.540474,"z":0,"lat":38.71359556,"lng":-9.145212878}},{"locationId":78,"address":"Jardim da Estrela","sensors":[{"id":"QA0NO20078","unit":"µg/m3"},{"id":"QAPM250078","unit":"µg/m3"},{"id":"QAPM100078","unit":"µg/m3"},{"id":"QA00CO0078","unit":"µg/m3"},{"id":"RULAEQ0078","unit":"dB(A)"},{"id":"ME00PA0078","unit":"mbar"},{"id":"ME00HR0078","unit":"%"},{"id":"METEMP0078","unit":"ºC"}],"coordinates":{"x":-89255.1331,"y":-105323.8973,"z":0,"lat":38.71505459,"lng":-9.159338426}},{"locationId":79,"address":"Avenida Doutor Francisco Luís Gomes / EMQA","sensors":[{"id":"QA0NO20079","unit":"µg/m3"},{"id":"QA00O30079","unit":"µg/m3"},{"id":"QAPM250079","unit":"µg/m3"},{"id":"QAPM100079","unit":"µg/m3"},{"id":"QA00CO0079","unit":"µg/m3"},{"id":"ME00PA0079","unit":"mbar"},{"id":"ME00HR0079","unit":"%"},{"id":"METEMP0079","unit":"ºC"}],"coordinates":{"x":-84666.8,"y":-99295.3,"z":0,"lat":38.76980435,"lng":-9.107327912}},{"locationId":80,"address":"Rua Nau Catrineta cruz Rua Nova dos Mercadores","sensors":[{"id":"RULAEQ0080","unit":"dB(A)"},{"id":"ME00PA0080","unit":"mbar"},{"id":"ME00HR0080","unit":"%"},{"id":"METEMP0080","unit":"ºC"}],"coordinates":{"x":-83643.9012834,"y":-100761.020178,"z":0,"lat":38.75670035,"lng":-9.09538213}},{"locationId":76,"address":"Restauradores - Avenida da Liberdade","sensors":[{"id":"QA00NO0076","unit":"µg/m3"},{"id":"QA0NO20076","unit":"µg/m3"},{"id":"QA00O30076","unit":"µg/m3"},{"id":"QAPM250076","unit":"µg/m3"},{"id":"QAPM100076","unit":"µg/m3"},{"id":"QA00CO0076","unit":"µg/m3"},{"id":"RULAEQ0076","unit":"dB(A)"},{"id":"ME00PA0076","unit":"mbar"},{"id":"ME00HR0076","unit":"%"},{"id":"METEMP0076","unit":"ºC"},{"id":"CT0VTH0076","unit":"Veículos"}],"coordinates":{"x":-87781.5819006,"y":-105178.68474,"z":0,"lat":38.71650996,"lng":-9.142416812}},{"locationId":1027,"address":"Avenida Eng. Duarte Pacheco","sensors":[{"id":"CT0VTH1027","unit":"Veículos"}],"coordinates":{"x":-88532.0078,"y":-104119,"z":0,"lat":38.722952,"lng":-9.167161}},{"locationId":1079,"address":"Avenida de Berlim","sensors":[{"id":"CT0VTH1079","unit":"Veículos"}],"coordinates":{"x":-84666.8,"y":-99295.3,"z":0,"lat":38.769492,"lng":-9.122116}}]